{
  "name":" 菏泽美食文化一日游路线",
  "found":true,
  "path":[[115.497379,35.279915],[115.500907,35.241715],[115.499334,35.246949],[115.437718,35.251241],[115.476401,35.235636]],
  "waypoints":[
    {"type":"spot","lng":115.497379,"lat":35.279915,"name":" 曹州牡丹园"},
    {"type":"food","lng":115.500907,"lat":35.241715,"name":" 菏泽烧牛肉"},
    {"type":"food","lng":115.499334,"lat":35.246949,"name":" 胡辣汤"},
    {"type":"food","lng":115.437718,"lat":35.251241,"name":" 羊肉汤"},
    {"type":"spot","lng":115.476401,"lat":35.235636,"name":" 天香公园"}
  ],
,"totalDistance":14392.6,"totalTime":21.6
}
